timestamp,acc_x,acc_y,acc_z,gyro_x,gyro_y,gyro_z,mag_x,mag_y,mag_z,baro_pressure,tiltXY,tiltYZ,tiltXZ,roll,pitch,yaw,totalTiltFromVertical,angularSpeed,heading,altitude
1743964458121,1743964457768,10.149157524108887,1.6911274194717407,-1.6941183805465698,1743964457870,-0.006872228812426329,0.16294817626476288,0.03451386094093323,1743964457854,-42.95625305175781,-2.512500047683716,-15.225000381469727,995.47998046875,135.0506224397895,80.53986852246305,99.47655963852424,9.460131477536953,9.349971552275763,-170.62924114113815,13.270975274946503,0.166704955756908,189.37075885886185,0.4768577565007803
1743964458138,1743964457898,9.311071395874023,1.9609181880950928,-1.8388842344284058,1743964457870,-0.006872228812426329,0.16294817626476288,0.03451386094093323,1743964457854,-42.95625305175781,-2.512500047683716,-15.225000381469727,995.47998046875,133.16052855277178,78.10726079415919,101.17182611286144,11.892739205840817,10.937868862011591,-170.62924114113815,16.104252710326808,0.166704955756908,189.37075885886185,0.4768577565007803
1743964458213,1743964457898,9.311071395874023,1.9609181880950928,-1.8388842344284058,1743964457974,-0.1153007298707962,-0.16004657745361328,0.12415826320648193,1743964457854,-42.95625305175781,-2.512500047683716,-15.225000381469727,995.47998046875,133.16052855277178,78.10726079415919,101.17182611286144,11.892739205840817,10.937868862011591,-170.62924114113815,16.104252710326808,0.2330760382059979,189.37075885886185,0.4768577565007803
1743964458225,1743964457898,9.311071395874023,1.9609181880950928,-1.8388842344284058,1743964457974,-0.1153007298707962,-0.16004657745361328,0.12415826320648193,1743964457854,-42.95625305175781,-2.512500047683716,-15.225000381469727,995.4837036132812,133.16052855277178,78.10726079415919,101.17182611286144,11.892739205840817,10.937868862011591,-170.62924114113815,16.104252710326808,0.2330760382059979,189.37075885886185,0.4453079248072289
1743964458281,1743964458027,9.817152976989746,2.2097716331481934,-1.852044701576233,1743964457974,-0.1153007298707962,-0.16004657745361328,0.12415826320648193,1743964457854,-42.95625305175781,-2.512500047683716,-15.225000381469727,995.4837036132812,129.96690782783398,77.31454920240222,100.68351298520203,12.685450797597785,10.428522526719167,-170.62924114113815,16.36728431803499,0.2330760382059979,189.37075885886185,0.4453079248072289
1743964458302,1743964458027,9.817152976989746,2.2097716331481934,-1.852044701576233,1743964457974,-0.1153007298707962,-0.16004657745361328,0.12415826320648193,1743964458054,-38.83125305175781,-5.418750286102295,-17.17500114440918,995.4837036132812,129.96690782783398,77.31454920240222,100.68351298520203,12.685450797597785,10.428522526719167,-162.48940096704618,16.36728431803499,0.2330760382059979,197.51059903295382,0.4453079248072289
1743964458321,1743964458027,9.817152976989746,2.2097716331481934,-1.852044701576233,1743964458078,-0.11636973917484283,-0.08109229803085327,0.32589635252952576,1743964458054,-38.83125305175781,-5.418750286102295,-17.17500114440918,995.4837036132812,129.96690782783398,77.31454920240222,100.68351298520203,12.685450797597785,10.428522526719167,-162.48940096704618,16.36728431803499,0.35542412634427983,197.51059903295382,0.4453079248072289
1743964458397,1743964458027,9.817152976989746,2.2097716331481934,-1.852044701576233,1743964458078,-0.11636973917484283,-0.08109229803085327,0.32589635252952576,1743964458054,-38.83125305175781,-5.418750286102295,-17.17500114440918,995.4824829101562,129.96690782783398,77.31454920240222,100.68351298520203,12.685450797597785,10.428522526719167,-162.48940096704618,16.36728431803499,0.35542412634427983,197.51059903295382,0.455652121393898
1743964458399,1743964458179,8.644669532775879,2.5525436401367188,-1.9938194751739502,1743964458078,-0.11636973917484283,-0.08109229803085327,0.32589635252952576,1743964458054,-38.83125305175781,-5.418750286102295,-17.17500114440918,995.4824829101562,127.99378039908227,73.54951495015159,102.9876677380985,16.450485049848414,12.472990524398321,-162.48940096704618,20.539765406310114,0.35542412634427983,197.51059903295382,0.455652121393898
1743964458428,1743964458179,8.644669532775879,2.5525436401367188,-1.9938194751739502,1743964458078,-0.11636973917484283,-0.08109229803085327,0.32589635252952576,1743964458154,-39.30000305175781,-7.312500476837158,-17.568750381469727,995.4824829101562,127.99378039908227,73.54951495015159,102.9876677380985,16.450485049848414,12.472990524398321,-157.40184698305973,20.539765406310114,0.35542412634427983,202.59815301694027,0.455652121393898
1743964458434,1743964458179,8.644669532775879,2.5525436401367188,-1.9938194751739502,1743964458183,-0.10995566099882126,-0.016187917441129684,0.08200860023498535,1743964458154,-39.30000305175781,-7.312500476837158,-17.568750381469727,995.4824829101562,127.99378039908227,73.54951495015159,102.9876677380985,16.450485049848414,12.472990524398321,-157.40184698305973,20.539765406310114,0.13812207126042592,202.59815301694027,0.455652121393898
1743964458498,1743964458179,8.644669532775879,2.5525436401367188,-1.9938194751739502,1743964458183,-0.10995566099882126,-0.016187917441129684,0.08200860023498535,1743964458254,-39.9375,-6.956250190734863,-17.681251525878906,995.4824829101562,127.99378039908227,73.54951495015159,102.9876677380985,16.450485049848414,12.472990524398321,-158.52407270732516,20.539765406310114,0.13812207126042592,201.47592729267484,0.455652121393898
1743964458519,1743964458287,9.33559799194336,2.702693223953247,-2.0997018814086914,1743964458183,-0.10995566099882126,-0.016187917441129684,0.08200860023498535,1743964458254,-39.9375,-6.956250190734863,-17.681251525878906,995.4824829101562,127.843363127884,73.85405707304179,102.67566532790295,16.145942926958202,12.190938110693542,-158.52407270732516,20.133149738446985,0.13812207126042592,201.47592729267484,0.455652121393898
1743964458543,1743964458287,9.33559799194336,2.702693223953247,-2.0997018814086914,1743964458287,-0.03894263133406639,-0.049480047076940536,0.023823726922273636,1743964458254,-39.9375,-6.956250190734863,-17.681251525878906,995.4824829101562,127.843363127884,73.85405707304179,102.67566532790295,16.145942926958202,12.190938110693542,-158.52407270732516,20.133149738446985,0.06732290515437021,201.47592729267484,0.455652121393898
1743964458556,1743964458287,9.33559799194336,2.702693223953247,-2.0997018814086914,1743964458287,-0.03894263133406639,-0.049480047076940536,0.023823726922273636,1743964458254,-39.9375,-6.956250190734863,-17.681251525878906,995.4837036132812,127.843363127884,73.85405707304179,102.67566532790295,16.145942926958202,12.190938110693542,-158.52407270732516,20.133149738446985,0.06732290515437021,201.47592729267484,0.4453079248072289
1743964458592,1743964458287,9.33559799194336,2.702693223953247,-2.0997018814086914,1743964458287,-0.03894263133406639,-0.049480047076940536,0.023823726922273636,1743964458354,-38.118751525878906,-7.218750476837158,-18.01875114440918,995.4837036132812,127.843363127884,73.85405707304179,102.67566532790295,16.145942926958202,12.190938110693542,-158.16775865671687,20.133149738446985,0.06732290515437021,201.83224134328313,0.4453079248072289
1743964458640,1743964458418,8.947361946105957,2.668595552444458,-1.9591234922409058,1743964458287,-0.03894263133406639,-0.049480047076940536,0.023823726922273636,1743964458354,-38.118751525878906,-7.218750476837158,-18.01875114440918,995.4837036132812,126.2838921327975,73.39252489700175,102.35062515831413,16.607475102998258,11.850292132897497,-158.16775865671687,20.304472395700806,0.06732290515437021,201.83224134328313,0.4453079248072289
1743964458674,1743964458418,8.947361946105957,2.668595552444458,-1.9591234922409058,1743964458390,-0.07651081681251526,0.01740964688360691,0.1101083755493164,1743964458354,-38.118751525878906,-7.218750476837158,-18.01875114440918,995.4837036132812,126.2838921327975,73.39252489700175,102.35062515831413,16.607475102998258,11.850292132897497,-158.16775865671687,20.304472395700806,0.13520671307312906,201.83224134328313,0.4453079248072289
1743964458706,1743964458418,8.947361946105957,2.668595552444458,-1.9591234922409058,1743964458390,-0.07651081681251526,0.01740964688360691,0.1101083755493164,1743964458454,-37.650001525878906,-8.925000190734863,-19.125,995.4837036132812,126.2838921327975,73.39252489700175,102.35062515831413,16.607475102998258,11.850292132897497,-154.98310605267272,20.304472395700806,0.13520671307312906,205.01689394732728,0.4453079248072289
1743964458720,1743964458418,8.947361946105957,2.668595552444458,-1.9591234922409058,1743964458390,-0.07651081681251526,0.01740964688360691,0.1101083755493164,1743964458454,-37.650001525878906,-8.925000190734863,-19.125,995.4874877929688,126.2838921327975,73.39252489700175,102.35062515831413,16.607475102998258,11.850292132897497,-154.98310605267272,20.304472395700806,0.13520671307312906,205.01689394732728,0.4132409806728421
1743964458740,1743964458418,8.947361946105957,2.668595552444458,-1.9591234922409058,1743964458495,0.03558287397027016,0.005345067009329796,0.009926552884280682,1743964458454,-37.650001525878906,-8.925000190734863,-19.125,995.4874877929688,126.2838921327975,73.39252489700175,102.35062515831413,16.607475102998258,11.850292132897497,-154.98310605267272,20.304472395700806,0.037326225545623766,205.01689394732728,0.4132409806728421
1743964458758,1743964458483,9.164510726928711,2.448455810546875,-1.4757733345031738,1743964458495,0.03558287397027016,0.005345067009329796,0.009926552884280682,1743964458454,-37.650001525878906,-8.925000190734863,-19.125,995.4874877929688,121.07889802580658,75.04181669259339,99.14788342088582,14.958183307406626,8.842885286911093,-154.98310605267272,17.32502224538818,0.037326225545623766,205.01689394732728,0.4132409806728421
1743964458841,1743964458483,9.164510726928711,2.448455810546875,-1.4757733345031738,1743964458598,-0.08048143237829208,-0.03481929376721382,0.03588830679655075,1743964458454,-37.650001525878906,-8.925000190734863,-19.125,995.4874877929688,121.07889802580658,75.04181669259339,99.14788342088582,14.958183307406626,8.842885286911093,-154.98310605267272,17.32502224538818,0.09475027567681525,205.01689394732728,0.4132409806728421
1743964458880,1743964458483,9.164510726928711,2.448455810546875,-1.4757733345031738,1743964458598,-0.08048143237829208,-0.03481929376721382,0.03588830679655075,1743964458454,-37.650001525878906,-8.925000190734863,-19.125,995.4912109375,121.07889802580658,75.04181669259339,99.14788342088582,14.958183307406626,8.842885286911093,-154.98310605267272,17.32502224538818,0.09475027567681525,205.01689394732728,0.38169134163605345
1743964458901,1743964458634,9.167501449584961,2.5639095306396484,-1.5541383028030396,1743964458598,-0.08048143237829208,-0.03481929376721382,0.03588830679655075,1743964458454,-37.650001525878906,-8.925000190734863,-19.125,995.4912109375,121.2225496390362,74.37508866232135,99.6216992260443,15.62491133767865,9.272425549842058,-154.98310605267272,18.109943628432255,0.09475027567681525,205.01689394732728,0.38169134163605345
1743964458913,1743964458634,9.167501449584961,2.5639095306396484,-1.5541383028030396,1743964458598,-0.08048143237829208,-0.03481929376721382,0.03588830679655075,1743964458654,-37.5,-8.081250190734863,-18.806251525878906,995.4912109375,121.2225496390362,74.37508866232135,99.6216992260443,15.62491133767865,9.272425549842058,-156.74627884487575,18.109943628432255,0.09475027567681525,203.25372115512425,0.38169134163605345
1743964458946,1743964458634,9.167501449584961,2.5639095306396484,-1.5541383028030396,1743964458702,-0.033139415085315704,-0.01511890348047018,-0.06490438431501389,1743964458654,-37.5,-8.081250190734863,-18.806251525878906,995.4912109375,121.2225496390362,74.37508866232135,99.6216992260443,15.62491133767865,9.272425549842058,-156.74627884487575,18.109943628432255,0.074427019139286,203.25372115512425,0.38169134163605345
1743964458999,1743964458634,9.167501449584961,2.5639095306396484,-1.5541383028030396,1743964458702,-0.033139415085315704,-0.01511890348047018,-0.06490438431501389,1743964458754,-36.67500305175781,-8.58750057220459,-19.256250381469727,995.4912109375,121.2225496390362,74.37508866232135,99.6216992260443,15.62491133767865,9.272425549842058,-155.96508199266245,18.109943628432255,0.074427019139286,204.03491800733755,0.38169134163605345
1743964459016,1743964458765,9.611370086669922,2.551945447921753,-1.7437695264816284,1743964458702,-0.033139415085315704,-0.01511890348047018,-0.06490438431501389,1743964458754,-36.67500305175781,-8.58750057220459,-19.256250381469727,995.4912109375,124.34518117892605,75.13030266064106,100.28319232941293,14.86969733935894,9.945819488712992,-155.96508199266245,17.826719386808914,0.074427019139286,204.03491800733755,0.38169134163605345
1743964459040,1743964458765,9.611370086669922,2.551945447921753,-1.7437695264816284,1743964458702,-0.033139415085315704,-0.01511890348047018,-0.06490438431501389,1743964458754,-36.67500305175781,-8.58750057220459,-19.256250381469727,995.4924926757812,124.34518117892605,75.13030266064106,100.28319232941293,14.86969733935894,9.945819488712992,-155.96508199266245,17.826719386808914,0.074427019139286,204.03491800733755,0.37083001259724746
1743964459062,1743964458765,9.611370086669922,2.551945447921753,-1.7437695264816284,1743964458806,0.0021380267571657896,-0.055741410702466965,-0.03695731982588768,1743964458754,-36.67500305175781,-8.58750057220459,-19.256250381469727,995.4924926757812,124.34518117892605,75.13030266064106,100.28319232941293,14.86969733935894,9.945819488712992,-155.96508199266245,17.826719386808914,0.06691426988489381,204.03491800733755,0.37083001259724746
1743964459122,1743964458895,9.80937671661377,2.465803623199463,-1.7114664316177368,1743964458806,0.0021380267571657896,-0.055741410702466965,-0.03695731982588768,1743964458754,-36.67500305175781,-8.58750057220459,-19.256250381469727,995.4924926757812,124.76376431896546,75.88978936726447,99.89691718033352,14.110210632735534,9.603958905314688,-155.96508199266245,17.013475859098648,0.06691426988489381,204.03491800733755,0.37083001259724746
1743964459160,1743964458895,9.80937671661377,2.465803623199463,-1.7114664316177368,1743964458910,-0.03787361457943916,0.00946840364485979,0.022449281066656113,1743964458754,-36.67500305175781,-8.58750057220459,-19.256250381469727,995.4924926757812,124.76376431896546,75.88978936726447,99.89691718033352,14.110210632735534,9.603958905314688,-155.96508199266245,17.013475859098648,0.045033671505925715,204.03491800733755,0.37083001259724746
1743964459185,1743964458895,9.80937671661377,2.465803623199463,-1.7114664316177368,1743964458910,-0.03787361457943916,0.00946840364485979,0.022449281066656113,1743964458754,-36.67500305175781,-8.58750057220459,-19.256250381469727,995.4937133789062,124.76376431896546,75.88978936726447,99.89691718033352,14.110210632735534,9.603958905314688,-155.96508199266245,17.013475859098648,0.045033671505925715,204.03491800733755,0.36048590023423865
1743964459200,1743964458895,9.80937671661377,2.465803623199463,-1.7114664316177368,1743964458910,-0.03787361457943916,0.00946840364485979,0.022449281066656113,1743964458954,-40.650001525878906,-7.556250095367432,-17.118751525878906,995.4937133789062,124.76376431896546,75.88978936726447,99.89691718033352,14.110210632735534,9.603958905314688,-156.1832437873832,17.013475859098648,0.045033671505925715,203.8167562126168,0.36048590023423865
1743964459240,1743964459024,9.079565048217773,2.496312141418457,-1.657029628753662,1743964458910,-0.03787361457943916,0.00946840364485979,0.022449281066656113,1743964458954,-40.650001525878906,-7.556250095367432,-17.118751525878906,995.4937133789062,123.5758505313754,74.62708255990319,100.34271214906356,15.37291744009682,9.980231859207205,-156.1832437873832,18.2626702791968,0.045033671505925715,203.8167562126168,0.36048590023423865
1743964459272,1743964459024,9.079565048217773,2.496312141418457,-1.657029628753662,1743964459014,-0.004123337101191282,-0.025503603741526604,0.04245510324835777,1743964458954,-40.650001525878906,-7.556250095367432,-17.118751525878906,995.4937133789062,123.5758505313754,74.62708255990319,100.34271214906356,15.37291744009682,9.980231859207205,-156.1832437873832,18.2626702791968,0.04969780180735953,203.8167562126168,0.36048590023423865
1743964459293,1743964459024,9.079565048217773,2.496312141418457,-1.657029628753662,1743964459014,-0.004123337101191282,-0.025503603741526604,0.04245510324835777,1743964459054,-37.63125228881836,-7.987500190734863,-18.84375,995.4937133789062,123.5758505313754,74.62708255990319,100.34271214906356,15.37291744009682,9.980231859207205,-157.028854055756,18.2626702791968,0.04969780180735953,202.971145944244,0.36048590023423865
1743964459360,1743964459024,9.079565048217773,2.496312141418457,-1.657029628753662,1743964459014,-0.004123337101191282,-0.025503603741526604,0.04245510324835777,1743964459054,-37.63125228881836,-7.987500190734863,-18.84375,995.4949951171875,123.5758505313754,74.62708255990319,100.34271214906356,15.37291744009682,9.980231859207205,-157.028854055756,18.2626702791968,0.04969780180735953,202.971145944244,0.3496245933033437
1743964459364,1743964459090,9.384650230407715,2.531606435775757,-1.561316728591919,1743964459014,-0.004123337101191282,-0.025503603741526604,0.04245510324835777,1743964459054,-37.63125228881836,-7.987500190734863,-18.84375,995.4949951171875,121.66336511311174,74.90322415214075,99.44573832760653,15.096775847859254,9.125320530572331,-157.028854055756,17.585358730744424,0.04969780180735953,202.971145944244,0.3496245933033437
1743964459390,1743964459090,9.384650230407715,2.531606435775757,-1.561316728591919,1743964459118,0.024892739951610565,0.023212861269712448,-0.04199695214629173,1743964459054,-37.63125228881836,-7.987500190734863,-18.84375,995.4949951171875,121.66336511311174,74.90322415214075,99.44573832760653,15.096775847859254,9.125320530572331,-157.028854055756,17.585358730744424,0.05405764904436136,202.971145944244,0.3496245933033437
1743964459395,1743964459090,9.384650230407715,2.531606435775757,-1.561316728591919,1743964459118,0.024892739951610565,0.023212861269712448,-0.04199695214629173,1743964459155,-36.78750228881836,-8.34375,-19.106250762939453,995.4949951171875,121.66336511311174,74.90322415214075,99.44573832760653,15.096775847859254,9.125320530572331,-156.40897961611796,17.585358730744424,0.05405764904436136,203.59102038388204,0.3496245933033437
1743964459477,1743964459090,9.384650230407715,2.531606435775757,-1.561316728591919,1743964459222,0.016646064817905426,-0.05635227635502815,-0.08277218043804169,1743964459155,-36.78750228881836,-8.34375,-19.106250762939453,995.4949951171875,121.66336511311174,74.90322415214075,99.44573832760653,15.096775847859254,9.125320530572331,-156.40897961611796,17.585358730744424,0.10150814932202785,203.59102038388204,0.3496245933033437
1743964459492,1743964459220,9.474381446838379,2.38983154296875,-1.5361921787261963,1743964459222,0.016646064817905426,-0.05635227635502815,-0.08277218043804169,1743964459155,-36.78750228881836,-8.34375,-19.106250762939453,995.4949951171875,122.73305313251973,75.8429502209441,99.20988338310755,14.157049779055894,8.934751127077208,-156.40897961611796,16.69185388466503,0.10150814932202785,203.59102038388204,0.3496245933033437
1743964459516,1743964459220,9.474381446838379,2.38983154296875,-1.5361921787261963,1743964459222,0.016646064817905426,-0.05635227635502815,-0.08277218043804169,1743964459255,-36.31875228881836,-8.231250762939453,-19.668750762939453,995.4949951171875,122.73305313251973,75.8429502209441,99.20988338310755,14.157049779055894,8.934751127077208,-157.2909908915464,16.69185388466503,0.10150814932202785,202.7090091084536,0.3496245933033437
1743964459523,1743964459220,9.474381446838379,2.38983154296875,-1.5361921787261963,1743964459222,0.016646064817905426,-0.05635227635502815,-0.08277218043804169,1743964459255,-36.31875228881836,-8.231250762939453,-19.668750762939453,995.4962158203125,122.73305313251973,75.8429502209441,99.20988338310755,14.157049779055894,8.934751127077208,-157.2909908915464,16.69185388466503,0.10150814932202785,202.7090091084536,0.3392805019950196
1743964459576,1743964459220,9.474381446838379,2.38983154296875,-1.5361921787261963,1743964459326,0.0435241162776947,0.01206457894295454,-0.07360920310020447,1743964459255,-36.31875228881836,-8.231250762939453,-19.668750762939453,995.4962158203125,122.73305313251973,75.8429502209441,99.20988338310755,14.157049779055894,8.934751127077208,-157.2909908915464,16.69185388466503,0.08636097234209572,202.7090091084536,0.3392805019950196
1743964459617,1743964459371,9.381659507751465,2.544168710708618,-1.8550357818603516,1743964459326,0.0435241162776947,0.01206457894295454,-0.07360920310020447,1743964459255,-36.31875228881836,-8.231250762939453,-19.668750762939453,995.4962158203125,126.09700130522161,74.82714233281499,101.18482045277338,15.172857667185019,10.804260808637443,-157.2909908915464,18.55261977312774,0.08636097234209572,202.7090091084536,0.3392805019950196
1743964459675,1743964459371,9.381659507751465,2.544168710708618,-1.8550357818603516,1743964459326,0.0435241162776947,0.01206457894295454,-0.07360920310020447,1743964459255,-36.31875228881836,-8.231250762939453,-19.668750762939453,995.4974975585938,126.09700130522161,74.82714233281499,101.18482045277338,15.172857667185019,10.804260808637443,-157.2909908915464,18.55261977312774,0.08636097234209572,202.7090091084536,0.3284192171720357
1743964459698,1743964459371,9.381659507751465,2.544168710708618,-1.8550357818603516,1743964459431,0.06017018109560013,-0.005955931730568409,-0.07070759683847427,1743964459255,-36.31875228881836,-8.231250762939453,-19.668750762939453,995.4974975585938,126.09700130522161,74.82714233281499,101.18482045277338,15.172857667185019,10.804260808637443,-157.2909908915464,18.55261977312774,0.09303487553884685,202.7090091084536,0.3284192171720357
1743964459719,1743964459371,9.381659507751465,2.544168710708618,-1.8550357818603516,1743964459431,0.06017018109560013,-0.005955931730568409,-0.07070759683847427,1743964459454,-36.60000228881836,-6.543750286102295,-19.668750762939453,995.4974975585938,126.09700130522161,74.82714233281499,101.18482045277338,15.172857667185019,10.804260808637443,-161.59782899475601,18.55261977312774,0.09303487553884685,198.40217100524399,0.3284192171720357
1743964459762,1743964459501,9.56650447845459,2.5334010124206543,-1.8580267429351807,1743964459431,0.06017018109560013,-0.005955931730568409,-0.07070759683847427,1743964459454,-36.60000228881836,-6.543750286102295,-19.668750762939453,995.4974975585938,126.25676923691823,75.16741382513861,100.99126593994019,14.8325861748614,10.633505247411136,-161.59782899475601,18.18059466089947,0.09303487553884685,198.40217100524399,0.3284192171720357
1743964459785,1743964459501,9.56650447845459,2.5334010124206543,-1.8580267429351807,1743964459534,0.12446369975805283,-0.14462223649024963,-0.007941242307424545,1743964459454,-36.60000228881836,-6.543750286102295,-19.668750762939453,995.4974975585938,126.25676923691823,75.16741382513861,100.99126593994019,14.8325861748614,10.633505247411136,-161.59782899475601,18.18059466089947,0.19097085425344268,198.40217100524399,0.3284192171720357
1743964459801,1743964459501,9.56650447845459,2.5334010124206543,-1.8580267429351807,1743964459534,0.12446369975805283,-0.14462223649024963,-0.007941242307424545,1743964459555,-36.5625,-6.918750286102295,-20.493751525878906,995.4974975585938,126.25676923691823,75.16741382513861,100.99126593994019,14.8325861748614,10.633505247411136,-161.34516771264268,18.18059466089947,0.19097085425344268,198.65483228735732,0.3284192171720357
1743964459835,1743964459501,9.56650447845459,2.5334010124206543,-1.8580267429351807,1743964459534,0.12446369975805283,-0.14462223649024963,-0.007941242307424545,1743964459555,-36.5625,-6.918750286102295,-20.493751525878906,995.4987182617188,126.25676923691823,75.16741382513861,100.99126593994019,14.8325861748614,10.633505247411136,-161.34516771264268,18.18059466089947,0.19097085425344268,198.65483228735732,0.3180751469134746
1743964459885,1743964459501,9.56650447845459,2.5334010124206543,-1.8580267429351807,1743964459638,0.2390008419752121,-0.1314886510372162,0.20082180202007294,1743964459555,-36.5625,-6.918750286102295,-20.493751525878906,995.4987182617188,126.25676923691823,75.16741382513861,100.99126593994019,14.8325861748614,10.633505247411136,-161.34516771264268,18.18059466089947,0.33873302759405743,198.65483228735732,0.3180751469134746
1743964459904,1743964459631,10.607980728149414,3.053241729736328,-2.1379871368408203,1743964459638,0.2390008419752121,-0.1314886510372162,0.20082180202007294,1743964459555,-36.5625,-6.918750286102295,-20.493751525878906,995.4987182617188,125.00106099926445,73.9428603080192,101.39503303826693,16.057139691980797,10.9614492567741,-161.34516771264268,19.360147458057142,0.33873302759405743,198.65483228735732,0.3180751469134746
1743964459997,1743964459631,10.607980728149414,3.053241729736328,-2.1379871368408203,1743964459742,0.1185077652335167,-0.3352120518684387,0.25702136754989624,1743964459555,-36.5625,-6.918750286102295,-20.493751525878906,995.4987182617188,125.00106099926445,73.9428603080192,101.39503303826693,16.057139691980797,10.9614492567741,-161.34516771264268,19.360147458057142,0.43871539010582933,198.65483228735732,0.3180751469134746
1743964459999,1743964459631,10.607980728149414,3.053241729736328,-2.1379871368408203,1743964459742,0.1185077652335167,-0.3352120518684387,0.25702136754989624,1743964459555,-36.5625,-6.918750286102295,-20.493751525878906,995.5,125.00106099926445,73.9428603080192,101.39503303826693,16.057139691980797,10.9614492567741,-161.34516771264268,19.360147458057142,0.43871539010582933,198.65483228735732,0.3072138841984018
1743964460002,1743964459631,10.607980728149414,3.053241729736328,-2.1379871368408203,1743964459742,0.1185077652335167,-0.3352120518684387,0.25702136754989624,1743964459754,-36.45000076293945,-8.756250381469727,-23.17500114440918,995.5,125.00106099926445,73.9428603080192,101.39503303826693,16.057139691980797,10.9614492567741,-159.30184500161639,19.360147458057142,0.43871539010582933,200.69815499838361,0.3072138841984018
1743964460026,1743964459761,9.347561836242676,2.3545374870300293,0.10408778488636017,1743964459742,0.1185077652335167,-0.3352120518684387,0.25702136754989624,1743964459754,-36.45000076293945,-8.756250381469727,-23.17500114440918,995.5,87.46875538454502,75.86199735388041,89.36202141232023,14.138002646119588,-0.6186558814476852,-159.30184500161639,14.151256275318172,0.43871539010582933,200.69815499838361,0.3072138841984018
1743964460088,1743964459761,9.347561836242676,2.3545374870300293,0.10408778488636017,1743964459846,0.0383317656815052,-0.1288924664258957,0.33658650517463684,1743964459754,-36.45000076293945,-8.756250381469727,-23.17500114440918,995.5,87.46875538454502,75.86199735388041,89.36202141232023,14.138002646119588,-0.6186558814476852,-159.30184500161639,14.151256275318172,0.3624542283203333,200.69815499838361,0.3072138841984018
1743964460107,1743964459761,9.347561836242676,2.3545374870300293,0.10408778488636017,1743964459846,0.0383317656815052,-0.1288924664258957,0.33658650517463684,1743964459855,-37.78125,-11.625,-23.681251525878906,995.5,87.46875538454502,75.86199735388041,89.36202141232023,14.138002646119588,-0.6186558814476852,-153.85382487045212,14.151256275318172,0.3624542283203333,206.14617512954788,0.3072138841984018
1743964460160,1743964459761,9.347561836242676,2.3545374870300293,0.10408778488636017,1743964459846,0.0383317656815052,-0.1288924664258957,0.33658650517463684,1743964459855,-37.78125,-11.625,-23.681251525878906,995.4987182617188,87.46875538454502,75.86199735388041,89.36202141232023,14.138002646119588,-0.6186558814476852,-153.85382487045212,14.151256275318172,0.3624542283203333,206.14617512954788,0.3180751469134746
1743964460167,1743964459891,8.595019340515137,2.3497519493103027,0.3924229145050049,1743964459846,0.0383317656815052,-0.1288924664258957,0.33658650517463684,1743964459855,-37.78125,-11.625,-23.681251525878906,995.4987182617188,80.51875623091256,74.70979507572781,87.38586125523429,15.290204924272189,-2.521726446793726,-153.85382487045212,15.491861479260033,0.3624542283203333,206.14617512954788,0.3180751469134746
1743964460195,1743964459891,8.595019340515137,2.3497519493103027,0.3924229145050049,1743964459950,-0.20250166952610016,-0.2782489061355591,0.14508038759231567,1743964459855,-37.78125,-11.625,-23.681251525878906,995.4987182617188,80.51875623091256,74.70979507572781,87.38586125523429,15.290204924272189,-2.521726446793726,-153.85382487045212,15.491861479260033,0.37346713214207966,206.14617512954788,0.3180751469134746
1743964460257,1743964460021,8.429315567016602,3.111865758895874,-0.9667003750801086,1743964459950,-0.20250166952610016,-0.2782489061355591,0.14508038759231567,1743964459855,-37.78125,-11.625,-23.681251525878906,995.4987182617188,107.25739486429336,69.73727496929565,96.54227796393428,20.262725030704356,6.140599325137434,-153.85382487045212,21.13524430357591,0.37346713214207966,206.14617512954788,0.3180751469134746
1743964460306,1743964460021,8.429315567016602,3.111865758895874,-0.9667003750801086,1743964460054,-0.1776089370250702,-0.12064579129219055,-0.001679878099821508,1743964459855,-37.78125,-11.625,-23.681251525878906,995.4987182617188,107.25739486429336,69.73727496929565,96.54227796393428,20.262725030704356,6.140599325137434,-153.85382487045212,21.13524430357591,0.2147164722561462,206.14617512954788,0.3180751469134746
1743964460309,1743964460021,8.429315567016602,3.111865758895874,-0.9667003750801086,1743964460054,-0.1776089370250702,-0.12064579129219055,-0.001679878099821508,1743964460055,-37.125,-14.456250190734863,-25.556251525878906,995.4987182617188,107.25739486429336,69.73727496929565,96.54227796393428,20.262725030704356,6.140599325137434,-150.50472364217987,21.13524430357591,0.2147164722561462,209.49527635782013,0.3180751469134746
1743964460318,1743964460021,8.429315567016602,3.111865758895874,-0.9667003750801086,1743964460054,-0.1776089370250702,-0.12064579129219055,-0.001679878099821508,1743964460055,-37.125,-14.456250190734863,-25.556251525878906,995.4962158203125,107.25739486429336,69.73727496929565,96.54227796393428,20.262725030704356,6.140599325137434,-150.50472364217987,21.13524430357591,0.2147164722561462,209.49527635782013,0.3392805019950196
1743964460360,1743964460086,8.714659690856934,2.5351955890655518,-0.18544375896453857,1743964460054,-0.1776089370250702,-0.12064579129219055,-0.001679878099821508,1743964460055,-37.125,-14.456250190734863,-25.556251525878906,995.4962158203125,94.18360426311885,73.77967379171936,91.2190426002015,16.220326208280632,1.1705319638735183,-150.50472364217987,16.261375282911235,0.2147164722561462,209.49527635782013,0.3392805019950196
1743964460399,1743964460086,8.714659690856934,2.5351955890655518,-0.18544375896453857,1743964460158,-0.4007273018360138,-0.129197895526886,-0.25641047954559326,1743964460055,-37.125,-14.456250190734863,-25.556251525878906,995.4962158203125,94.18360426311885,73.77967379171936,91.2190426002015,16.220326208280632,1.1705319638735183,-150.50472364217987,16.261375282911235,0.4929713994403214,209.49527635782013,0.3392805019950196
1743964460480,1743964460086,8.714659690856934,2.5351955890655518,-0.18544375896453857,1743964460158,-0.4007273018360138,-0.129197895526886,-0.25641047954559326,1743964460055,-37.125,-14.456250190734863,-25.556251525878906,995.4962158203125,94.18360426311885,73.77967379171936,91.2190426002015,16.220326208280632,1.1705319638735183,-150.50472364217987,16.261375282911235,0.4929713994403214,209.49527635782013,0.3392805019950196
1743964460498,1743964460237,9.402596473693848,3.0927233695983887,-1.2526426315307617,1743964460158,-0.4007273018360138,-0.129197895526886,-0.25641047954559326,1743964460055,-37.125,-14.456250190734863,-25.556251525878906,995.4962158203125,112.04937453839871,71.7928131969737,97.58843518855386,18.2071868030263,7.21260864335476,-150.50472364217987,19.5386433563696,0.4929713994403214,209.49527635782013,0.3392805019950196
1743964460503,1743964460237,9.402596473693848,3.0927233695983887,-1.2526426315307617,1743964460158,-0.4007273018360138,-0.129197895526886,-0.25641047954559326,1743964460254,-35.88750076293945,-12.412500381469727,-25.42500114440918,995.4962158203125,112.04937453839871,71.7928131969737,97.58843518855386,18.2071868030263,7.21260864335476,-153.97834273551834,19.5386433563696,0.4929713994403214,206.02165726448166,0.3392805019950196
1743964460513,1743964460237,9.402596473693848,3.0927233695983887,-1.2526426315307617,1743964460262,-0.44409868121147156,0.03940077871084213,-0.3741546869277954,1743964460254,-35.88750076293945,-12.412500381469727,-25.42500114440918,995.4962158203125,112.04937453839871,71.7928131969737,97.58843518855386,18.2071868030263,7.21260864335476,-153.97834273551834,19.5386433563696,0.5820376188588033,206.02165726448166,0.3392805019950196
1743964460603,1743964460237,9.402596473693848,3.0927233695983887,-1.2526426315307617,1743964460262,-0.44409868121147156,0.03940077871084213,-0.3741546869277954,1743964460355,-37.76250076293945,-10.200000762939453,-24.39375114440918,995.4962158203125,112.04937453839871,71.7928131969737,97.58843518855386,18.2071868030263,7.21260864335476,-157.3082491332806,19.5386433563696,0.5820376188588033,202.6917508667194,0.3392805019950196
1743964460615,1743964460237,9.402596473693848,3.0927233695983887,-1.2526426315307617,1743964460366,-0.08353576064109802,-0.06765327602624893,-0.43829548358917236,1743964460355,-37.76250076293945,-10.200000762939453,-24.39375114440918,995.4962158203125,112.04937453839871,71.7928131969737,97.58843518855386,18.2071868030263,7.21260864335476,-157.3082491332806,19.5386433563696,0.4512849654017261,202.6917508667194,0.3392805019950196
1743964460625,1743964460390,9.30449104309082,2.9653055667877197,-2.641676187515259,1743964460366,-0.08353576064109802,-0.06765327602624893,-0.43829548358917236,1743964460355,-37.76250076293945,-10.200000762939453,-24.39375114440918,995.4962158203125,131.6966100509094,72.32311935367261,105.84999188564268,17.676880646327387,15.136744777408916,-157.3082491332806,23.113710264726617,0.4512849654017261,202.6917508667194,0.3392805019950196
1743964460640,1743964460390,9.30449104309082,2.9653055667877197,-2.641676187515259,1743964460366,-0.08353576064109802,-0.06765327602624893,-0.43829548358917236,1743964460355,-37.76250076293945,-10.200000762939453,-24.39375114440918,995.4974975585938,131.6966100509094,72.32311935367261,105.84999188564268,17.676880646327387,15.136744777408916,-157.3082491332806,23.113710264726617,0.4512849654017261,202.6917508667194,0.3284192171720357
1743964460717,1743964460390,9.30449104309082,2.9653055667877197,-2.641676187515259,1743964460470,0.651639997959137,0.40973755717277527,-0.1487455666065216,1743964460355,-37.76250076293945,-10.200000762939453,-24.39375114440918,995.4974975585938,131.6966100509094,72.32311935367261,105.84999188564268,17.676880646327387,15.136744777408916,-157.3082491332806,23.113710264726617,0.7839928547398838,202.6917508667194,0.3284192171720357
1743964460758,1743964460497,10.50927734375,2.874976396560669,-1.6235301494598389,1743964460470,0.651639997959137,0.40973755717277527,-0.1487455666065216,1743964460355,-37.76250076293945,-10.200000762939453,-24.39375114440918,995.4974975585938,119.4538852813068,74.70018539242757,98.7819393340842,15.299814607572438,8.475293695198014,-157.3082491332806,17.441243532042886,0.7839928547398838,202.6917508667194,0.3284192171720357
1743964460800,1743964460497,10.50927734375,2.874976396560669,-1.6235301494598389,1743964460470,0.651639997959137,0.40973755717277527,-0.1487455666065216,1743964460355,-37.76250076293945,-10.200000762939453,-24.39375114440918,995.4987182617188,119.4538852813068,74.70018539242757,98.7819393340842,15.299814607572438,8.475293695198014,-157.3082491332806,17.441243532042886,0.7839928547398838,202.6917508667194,0.3180751469134746
1743964460812,1743964460497,10.50927734375,2.874976396560669,-1.6235301494598389,1743964460470,0.651639997959137,0.40973755717277527,-0.1487455666065216,1743964460554,-36.65625,-5.8125,-23.943750381469727,995.4987182617188,119.4538852813068,74.70018539242757,98.7819393340842,15.299814607572438,8.475293695198014,-166.35502859208606,17.441243532042886,0.7839928547398838,193.64497140791394,0.3180751469134746
1743964460822,1743964460497,10.50927734375,2.874976396560669,-1.6235301494598389,1743964460575,0.8283326625823975,0.1611155867576599,0.17226386070251465,1743964460554,-36.65625,-5.8125,-23.943750381469727,995.4987182617188,119.4538852813068,74.70018539242757,98.7819393340842,15.299814607572438,8.475293695198014,-166.35502859208606,17.441243532042886,0.8612595833436307,193.64497140791394,0.3180751469134746
1743964460916,1743964460649,11.583056449890137,2.2127628326416016,1.3399807214736938,1743964460575,0.8283326625823975,0.1611155867576599,0.17226386070251465,1743964460554,-36.65625,-5.8125,-23.943750381469727,995.4987182617188,58.80219924092613,79.1848391759045,83.40109648861176,10.815160824095496,-6.482698051339833,-166.35502859208606,12.589373991596004,0.8612595833436307,193.64497140791394,0.3180751469134746
1743964460916,1743964460649,11.583056449890137,2.2127628326416016,1.3399807214736938,1743964460575,0.8283326625823975,0.1611155867576599,0.17226386070251465,1743964460655,-39.48750305175781,-6.712500095367432,-23.700000762939453,995.4987182617188,58.80219924092613,79.1848391759045,83.40109648861176,10.815160824095496,-6.482698051339833,-164.18640120383802,12.589373991596004,0.8612595833436307,195.81359879616198,0.3180751469134746
1743964460926,1743964460649,11.583056449890137,2.2127628326416016,1.3399807214736938,1743964460679,0.6229293346405029,-0.18677189946174622,0.7483093738555908,1743964460655,-39.48750305175781,-6.712500095367432,-23.700000762939453,995.4987182617188,58.80219924092613,79.1848391759045,83.40109648861176,10.815160824095496,-6.482698051339833,-164.18640120383802,12.589373991596004,0.9914089052375689,195.81359879616198,0.3180751469134746
1743964460949,1743964460649,11.583056449890137,2.2127628326416016,1.3399807214736938,1743964460679,0.6229293346405029,-0.18677189946174622,0.7483093738555908,1743964460655,-39.48750305175781,-6.712500095367432,-23.700000762939453,995.5,58.80219924092613,79.1848391759045,83.40109648861176,10.815160824095496,-6.482698051339833,-164.18640120383802,12.589373991596004,0.9914089052375689,195.81359879616198,0.3072138841984018
1743964461002,1743964460649,11.583056449890137,2.2127628326416016,1.3399807214736938,1743964460679,0.6229293346405029,-0.18677189946174622,0.7483093738555908,1743964460754,-39.73125076293945,-11.512500762939453,-25.481250762939453,995.5,58.80219924092613,79.1848391759045,83.40109648861176,10.815160824095496,-6.482698051339833,-155.68641365473223,12.589373991596004,0.9914089052375689,204.31358634526777,0.3072138841984018
1743964461017,1743964460779,8.499305725097656,2.3431715965270996,1.4835500717163086,1743964460679,0.6229293346405029,-0.18677189946174622,0.7483093738555908,1743964460754,-39.73125076293945,-11.512500762939453,-25.481250762939453,995.5,57.66056081597305,74.5870132348744,80.09879784370084,15.412986765125597,-9.551787161717,-155.68641365473223,18.071560492128988,0.9914089052375689,204.31358634526777,0.3072138841984018
1743964461029,1743964460779,8.499305725097656,2.3431715965270996,1.4835500717163086,1743964460783,-0.08414662629365921,-0.3733910918235779,0.7183769941329956,1743964460754,-39.73125076293945,-11.512500762939453,-25.481250762939453,995.5,57.66056081597305,74.5870132348744,80.09879784370084,15.412986765125597,-9.551787161717,-155.68641365473223,18.071560492128988,0.8139822282269842,204.31358634526777,0.3072138841984018
1743964461106,1743964460779,8.499305725097656,2.3431715965270996,1.4835500717163086,1743964460783,-0.08414662629365921,-0.3733910918235779,0.7183769941329956,1743964460754,-39.73125076293945,-11.512500762939453,-25.481250762939453,995.4987182617188,57.66056081597305,74.5870132348744,80.09879784370084,15.412986765125597,-9.551787161717,-155.68641365473223,18.071560492128988,0.8139822282269842,204.31358634526777,0.3180751469134746
1743964461161,1743964460779,8.499305725097656,2.3431715965270996,1.4835500717163086,1743964460886,-0.33536475896835327,-0.4987711012363434,0.07101303339004517,1743964460754,-39.73125076293945,-11.512500762939453,-25.481250762939453,995.4987182617188,57.66056081597305,74.5870132348744,80.09879784370084,15.412986765125597,-9.551787161717,-155.68641365473223,18.071560492128988,0.6052148245851815,204.31358634526777,0.3180751469134746
1743964461172,1743964460909,7.835297584533691,2.6799614429473877,-0.2949153780937195,1743964460886,-0.33536475896835327,-0.4987711012363434,0.07101303339004517,1743964460754,-39.73125076293945,-11.512500762939453,-25.481250762939453,995.4987182617188,96.27982528491638,71.11741565572464,92.15555739194014,18.88258434427536,2.0396541893910074,-155.68641365473223,18.988429394708554,0.6052148245851815,204.31358634526777,0.3180751469134746
1743964461197,1743964460909,7.835297584533691,2.6799614429473877,-0.2949153780937195,1743964460886,-0.33536475896835327,-0.4987711012363434,0.07101303339004517,1743964460955,-35.625,-18.01875114440918,-30.11250114440918,995.4987182617188,96.27982528491638,71.11741565572464,92.15555739194014,18.88258434427536,2.0396541893910074,-149.104495804948,18.988429394708554,0.6052148245851815,210.895504195052,0.3180751469134746
1743964461234,1743964460909,7.835297584533691,2.6799614429473877,-0.2949153780937195,1743964460990,-0.5027416944503784,-0.23075416684150696,-0.07116574794054031,1743964460955,-35.625,-18.01875114440918,-30.11250114440918,995.4987182617188,96.27982528491638,71.11741565572464,92.15555739194014,18.88258434427536,2.0396541893910074,-149.104495804948,18.988429394708554,0.5577286621050528,210.895504195052,0.3180751469134746
1743964461270,1743964460909,7.835297584533691,2.6799614429473877,-0.2949153780937195,1743964460990,-0.5027416944503784,-0.23075416684150696,-0.07116574794054031,1743964460955,-35.625,-18.01875114440918,-30.11250114440918,995.4962158203125,96.27982528491638,71.11741565572464,92.15555739194014,18.88258434427536,2.0396541893910074,-149.104495804948,18.988429394708554,0.5577286621050528,210.895504195052,0.3392805019950196
1743964461289,1743964461039,8.62014389038086,2.991028308868408,0.5742774605751038,1743964460990,-0.5027416944503784,-0.23075416684150696,-0.07116574794054031,1743964460955,-35.625,-18.01875114440918,-30.11250114440918,995.4962158203125,79.13147419292872,70.86418462913117,86.18856415333855,19.13581537086883,-3.601402270551998,-149.104495804948,19.45927878871204,0.5577286621050528,210.895504195052,0.3392805019950196
1743964461321,1743964461039,8.62014389038086,2.991028308868408,0.5742774605751038,1743964460990,-0.5027416944503784,-0.23075416684150696,-0.07116574794054031,1743964461054,-36.431251525878906,-18.20625114440918,-30.318750381469727,995.4962158203125,79.13147419292872,70.86418462913117,86.18856415333855,19.13581537086883,-3.601402270551998,-149.01540357974346,19.45927878871204,0.5577286621050528,210.98459642025654,0.3392805019950196
1743964461337,1743964461039,8.62014389038086,2.991028308868408,0.5742774605751038,1743964461094,-0.9040798544883728,-0.9106466770172119,-0.6239983439445496,1743964461054,-36.431251525878906,-18.20625114440918,-30.318750381469727,995.4962158203125,79.13147419292872,70.86418462913117,86.18856415333855,19.13581537086883,-3.601402270551998,-149.01540357974346,19.45927878871204,1.4268888137832423,210.98459642025654,0.3392805019950196
1743964461402,1743964461039,8.62014389038086,2.991028308868408,0.5742774605751038,1743964461094,-0.9040798544883728,-0.9106466770172119,-0.6239983439445496,1743964461155,-36.76875305175781,-15.862500190734863,-32.587501525878906,995.4962158203125,79.13147419292872,70.86418462913117,86.18856415333855,19.13581537086883,-3.601402270551998,-154.04473821133746,19.45927878871204,1.4268888137832423,205.95526178866254,0.3392805019950196
1743964461441,1743964461170,6.56411075592041,1.679761528968811,-0.07956135272979736,1743964461094,-0.9040798544883728,-0.9106466770172119,-0.6239983439445496,1743964461155,-36.76875305175781,-15.862500190734863,-32.587501525878906,995.4962158203125,92.71176910501686,75.64599499823294,90.69442864100627,14.35400500176706,0.6727523313595206,-154.04473821133746,14.369430978747387,1.4268888137832423,205.95526178866254,0.3392805019950196
1743964461442,1743964461170,6.56411075592041,1.679761528968811,-0.07956135272979736,1743964461094,-0.9040798544883728,-0.9106466770172119,-0.6239983439445496,1743964461155,-36.76875305175781,-15.862500190734863,-32.587501525878906,995.4949951171875,92.71176910501686,75.64599499823294,90.69442864100627,14.35400500176706,0.6727523313595206,-154.04473821133746,14.369430978747387,1.4268888137832423,205.95526178866254,0.3496245933033437
1743964461460,1743964461170,6.56411075592041,1.679761528968811,-0.07956135272979736,1743964461198,-0.8984293937683105,-0.5543597936630249,-1.4057525396347046,1743964461155,-36.76875305175781,-15.862500190734863,-32.587501525878906,995.4949951171875,92.71176910501686,75.64599499823294,90.69442864100627,14.35400500176706,0.6727523313595206,-154.04473821133746,14.369430978747387,1.7580188733646824,205.95526178866254,0.3496245933033437
1743964461547,1743964461170,6.56411075592041,1.679761528968811,-0.07956135272979736,1743964461302,0.17867794632911682,-0.06902772188186646,-2.550665855407715,1743964461155,-36.76875305175781,-15.862500190734863,-32.587501525878906,995.4949951171875,92.71176910501686,75.64599499823294,90.69442864100627,14.35400500176706,0.6727523313595206,-154.04473821133746,14.369430978747387,2.5578481074597375,205.95526178866254,0.3496245933033437
1743964461561,1743964461299,8.560322761535645,1.2215359210968018,-3.397808074951172,1743964461302,0.17867794632911682,-0.06902772188186646,-2.550665855407715,1743964461155,-36.76875305175781,-15.862500190734863,-32.587501525878906,995.4949951171875,160.22613161687462,81.87886659979466,111.64937676456542,8.121133400205341,21.452082712470126,-154.04473821133746,22.869841277149778,2.5578481074597375,205.95526178866254,0.3496245933033437
1743964461594,1743964461299,8.560322761535645,1.2215359210968018,-3.397808074951172,1743964461302,0.17867794632911682,-0.06902772188186646,-2.550665855407715,1743964461155,-36.76875305175781,-15.862500190734863,-32.587501525878906,995.4924926757812,160.22613161687462,81.87886659979466,111.64937676456542,8.121133400205341,21.452082712470126,-154.04473821133746,22.869841277149778,2.5578481074597375,205.95526178866254,0.37083001259724746
1743964461602,1743964461299,8.560322761535645,1.2215359210968018,-3.397808074951172,1743964461302,0.17867794632911682,-0.06902772188186646,-2.550665855407715,1743964461355,-29.681251525878906,4.331250190734863,-31.05000114440918,995.4924926757812,160.22613161687462,81.87886659979466,111.64937676456542,8.121133400205341,21.452082712470126,172.05889592299891,22.869841277149778,2.5578481074597375,172.0588959229989,0.37083001259724746
1743964461648,1743964461299,8.560322761535645,1.2215359210968018,-3.397808074951172,1743964461406,1.665522813796997,0.6714931130409241,-0.4650208055973053,1743964461355,-29.681251525878906,4.331250190734863,-31.05000114440918,995.4924926757812,160.22613161687462,81.87886659979466,111.64937676456542,8.121133400205341,21.452082712470126,172.05889592299891,22.869841277149778,1.8550238795708331,172.0588959229989,0.37083001259724746
1743964461706,1743964461451,14.4861478805542,-0.5485545992851257,-1.3256237506866455,1743964461406,1.665522813796997,0.6714931130409241,-0.4650208055973053,1743964461355,-29.681251525878906,4.331250190734863,-31.05000114440918,995.4924926757812,-157.51980416884783,92.16861332603833,95.228560114276,-2.168613326038311,5.224836128104948,172.05889592299891,5.655859959900255,1.8550238795708331,172.0588959229989,0.37083001259724746
1743964461721,1743964461451,14.4861478805542,-0.5485545992851257,-1.3256237506866455,1743964461406,1.665522813796997,0.6714931130409241,-0.4650208055973053,1743964461455,-27.131250381469727,12.956250190734863,-29.062501907348633,995.4924926757812,-157.51980416884783,92.16861332603833,95.228560114276,-2.168613326038311,5.224836128104948,155.97237992506027,5.655859959900255,1.8550238795708331,155.9723799250603,0.37083001259724746
1743964461750,1743964461451,14.4861478805542,-0.5485545992851257,-1.3256237506866455,1743964461406,1.665522813796997,0.6714931130409241,-0.4650208055973053,1743964461455,-27.131250381469727,12.956250190734863,-29.062501907348633,995.4962158203125,-157.51980416884783,92.16861332603833,95.228560114276,-2.168613326038311,5.224836128104948,155.97237992506027,5.655859959900255,1.8550238795708331,155.9723799250603,0.3392805019950196
1743964461765,1743964461451,14.4861478805542,-0.5485545992851257,-1.3256237506866455,1743964461511,1.9440771341323853,0.8164207935333252,0.3607156574726105,1743964461455,-27.131250381469727,12.956250190734863,-29.062501907348633,995.4962158203125,-157.51980416884783,92.16861332603833,95.228560114276,-2.168613326038311,5.224836128104948,155.97237992506027,5.655859959900255,2.139180824782204,155.9723799250603,0.3392805019950196
1743964461800,1743964461559,15.145370483398438,-1.8987047672271729,-0.005982056725770235,1743964461511,1.9440771341323853,0.8164207935333252,0.3607156574726105,1743964461455,-27.131250381469727,12.956250190734863,-29.062501907348633,995.4962158203125,-90.18051540979509,97.14562674437178,90.02263045237135,-7.145626744371768,0.02245468607498903,155.97237992506027,7.145661842401806,2.139180824782204,155.9723799250603,0.3392805019950196
1743964461863,1743964461559,15.145370483398438,-1.8987047672271729,-0.005982056725770235,1743964461614,1.2887719869613647,1.03129243850708,1.3211477994918823,1743964461455,-27.131250381469727,12.956250190734863,-29.062501907348633,995.4962158203125,-90.18051540979509,97.14562674437178,90.02263045237135,-7.145626744371768,0.02245468607498903,155.97237992506027,7.145661842401806,2.1142206214585237,155.9723799250603,0.3392805019950196
1743964461915,1743964461559,15.145370483398438,-1.8987047672271729,-0.005982056725770235,1743964461614,1.2887719869613647,1.03129243850708,1.3211477994918823,1743964461654,-47.88750076293945,14.081250190734863,-8.625,995.4962158203125,-90.18051540979509,97.14562674437178,90.02263045237135,-7.145626744371768,0.02245468607498903,121.48816250412742,7.145661842401806,2.1142206214585237,121.48816250412744,0.3392805019950196
1743964461937,1743964461559,15.145370483398438,-1.8987047672271729,-0.005982056725770235,1743964461614,1.2887719869613647,1.03129243850708,1.3211477994918823,1743964461654,-47.88750076293945,14.081250190734863,-8.625,995.4987182617188,-90.18051540979509,97.14562674437178,90.02263045237135,-7.145626744371768,0.02245468607498903,121.48816250412742,7.145661842401806,2.1142206214585237,121.48816250412744,0.3180751469134746
1743964461956,1743964461689,12.87218952178955,-1.1676974296569824,-0.03469592705368996,1743964461614,1.2887719869613647,1.03129243850708,1.3211477994918823,1743964461654,-47.88750076293945,14.081250190734863,-8.625,995.4987182617188,-91.70193529444198,95.18338496093222,90.15443568235527,-5.183384960932204,0.1538041421427955,121.48816250412742,5.185660111973743,2.1142206214585237,121.48816250412744,0.3180751469134746
1743964461983,1743964461689,12.87218952178955,-1.1676974296569824,-0.03469592705368996,1743964461719,0.8342885971069336,0.11209368705749512,1.240666389465332,1743964461654,-47.88750076293945,14.081250190734863,-8.625,995.4987182617188,-91.70193529444198,95.18338496093222,90.15443568235527,-5.183384960932204,0.1538041421427955,121.48816250412742,5.185660111973743,1.499285012227409,121.48816250412744,0.3180751469134746
1743964461993,1743964461689,12.87218952178955,-1.1676974296569824,-0.03469592705368996,1743964461719,0.8342885971069336,0.11209368705749512,1.240666389465332,1743964461755,-44.587501525878906,-0.48750001192092896,-9.9375,995.4987182617188,-91.70193529444198,95.18338496093222,90.15443568235527,-5.183384960932204,0.1538041421427955,-177.19151505408755,5.185660111973743,1.499285012227409,182.80848494591245,0.3180751469134746
1743964462082,1743964461689,12.87218952178955,-1.1676974296569824,-0.03469592705368996,1743964461823,0.12370011955499649,-0.3610210716724396,1.2951860427856445,1743964461755,-44.587501525878906,-0.48750001192092896,-9.9375,995.4987182617188,-91.70193529444198,95.18338496093222,90.15443568235527,-5.183384960932204,0.1538041421427955,-177.19151505408755,5.185660111973743,1.3502388008038335,182.80848494591245,0.3180751469134746
1743964462093,1743964461689,12.87218952178955,-1.1676974296569824,-0.03469592705368996,1743964461823,0.12370011955499649,-0.3610210716724396,1.2951860427856445,1743964461755,-44.587501525878906,-0.48750001192092896,-9.9375,995.4962158203125,-91.70193529444198,95.18338496093222,90.15443568235527,-5.183384960932204,0.1538041421427955,-177.19151505408755,5.185660111973743,1.3502388008038335,182.80848494591245,0.3392805019950196
1743964462093,1743964461841,7.636693477630615,1.5553346872329712,1.8711873292922974,1743964461823,0.12370011955499649,-0.3610210716724396,1.2951860427856445,1743964461755,-44.587501525878906,-0.48750001192092896,-9.9375,995.4962158203125,39.73342747658341,78.48824393669213,76.23230196286937,11.511756063307873,-13.500980466070727,-177.19151505408755,17.67282103362971,1.3502388008038335,182.80848494591245,0.3392805019950196
1743964462113,1743964461841,7.636693477630615,1.5553346872329712,1.8711873292922974,1743964461823,0.12370011955499649,-0.3610210716724396,1.2951860427856445,1743964461854,-41.19375228881836,-11.30625057220459,-14.981250762939453,995.4962158203125,39.73342747658341,78.48824393669213,76.23230196286937,11.511756063307873,-13.500980466070727,-142.95838725408012,17.67282103362971,1.3502388008038335,217.04161274591988,0.3392805019950196
1743964462169,1743964461841,7.636693477630615,1.5553346872329712,1.8711873292922974,1743964461926,-0.6629409790039062,-0.8915571570396423,0.476321816444397,1743964461854,-41.19375228881836,-11.30625057220459,-14.981250762939453,995.4962158203125,39.73342747658341,78.48824393669213,76.23230196286937,11.511756063307873,-13.500980466070727,-142.95838725408012,17.67282103362971,1.2088206561488586,217.04161274591988,0.3392805019950196
1743964462195,1743964461841,7.636693477630615,1.5553346872329712,1.8711873292922974,1743964461926,-0.6629409790039062,-0.8915571570396423,0.476321816444397,1743964461955,-39.9375,-15.206250190734863,-19.575000762939453,995.4962158203125,39.73342747658341,78.48824393669213,76.23230196286937,11.511756063307873,-13.500980466070727,-142.15922805283472,17.67282103362971,1.2088206561488586,217.84077194716528,0.3392805019950196
1743964462231,1743964461841,7.636693477630615,1.5553346872329712,1.8711873292922974,1743964461926,-0.6629409790039062,-0.8915571570396423,0.476321816444397,1743964461955,-39.9375,-15.206250190734863,-19.575000762939453,995.4924926757812,39.73342747658341,78.48824393669213,76.23230196286937,11.511756063307873,-13.500980466070727,-142.15922805283472,17.67282103362971,1.2088206561488586,217.84077194716528,0.37083001259724746
1743964462254,1743964461992,5.6153564453125,1.984248161315918,1.1784651279449463,1743964461926,-0.6629409790039062,-0.8915571570396423,0.476321816444397,1743964461955,-39.9375,-15.206250190734863,-19.575000762939453,995.4924926757812,59.293493605807356,70.53857658472123,78.14764545693318,19.46142341527878,-11.192775533524602,-142.15922805283472,22.341840335614645,1.2088206561488586,217.84077194716528,0.37083001259724746
1743964462268,1743964461992,5.6153564453125,1.984248161315918,1.1784651279449463,1743964462031,-1.290604591369629,-0.8965967893600464,-0.3205513060092926,1743964461955,-39.9375,-15.206250190734863,-19.575000762939453,995.4924926757812,59.293493605807356,70.53857658472123,78.14764545693318,19.46142341527878,-11.192775533524602,-142.15922805283472,22.341840335614645,1.603838880230609,217.84077194716528,0.37083001259724746
1743964462294,1743964461992,5.6153564453125,1.984248161315918,1.1784651279449463,1743964462031,-1.290604591369629,-0.8965967893600464,-0.3205513060092926,1743964462055,-38.98125076293945,-16.40625,-23.981250762939453,995.4924926757812,59.293493605807356,70.53857658472123,78.14764545693318,19.46142341527878,-11.192775533524602,-145.62286813253613,22.341840335614645,1.603838880230609,214.37713186746387,0.37083001259724746
1743964462397,1743964461992,5.6153564453125,1.984248161315918,1.1784651279449463,1743964462135,-1.1861467361450195,-0.6548470258712769,-0.8720094561576843,1743964462055,-38.98125076293945,-16.40625,-23.981250762939453,995.4924926757812,59.293493605807356,70.53857658472123,78.14764545693318,19.46142341527878,-11.192775533524602,-145.62286813253613,22.341840335614645,1.6112632306945875,214.37713186746387,0.37083001259724746
1743964462402,1743964461992,5.6153564453125,1.984248161315918,1.1784651279449463,1743964462135,-1.1861467361450195,-0.6548470258712769,-0.8720094561576843,1743964462055,-38.98125076293945,-16.40625,-23.981250762939453,995.489990234375,59.293493605807356,70.53857658472123,78.14764545693318,19.46142341527878,-11.192775533524602,-145.62286813253613,22.341840335614645,1.6112632306945875,214.37713186746387,0.3920354750537469
1743964462422,1743964462123,7.392027378082275,1.7694923877716064,-2.241476535797119,1743964462135,-1.1861467361450195,-0.6548470258712769,-0.8720094561576843,1743964462055,-38.98125076293945,-16.40625,-23.981250762939453,995.489990234375,141.71132258427912,76.53794168141857,106.8688214145666,13.462058318581438,16.430656402382688,-145.62286813253613,21.12297625414207,1.6112632306945875,214.37713186746387,0.3920354750537469
1743964462422,1743964462123,7.392027378082275,1.7694923877716064,-2.241476535797119,1743964462135,-1.1861467361450195,-0.6548470258712769,-0.8720094561576843,1743964462155,-37.81875228881836,-14.700000762939453,-27.093751907348633,995.489990234375,141.71132258427912,76.53794168141857,106.8688214145666,13.462058318581438,16.430656402382688,-151.51748880859913,21.12297625414207,1.6112632306945875,208.48251119140087,0.3920354750537469
1743964462493,1743964462123,7.392027378082275,1.7694923877716064,-2.241476535797119,1743964462238,-0.6569850444793701,-0.043829549103975296,-1.012966513633728,1743964462155,-37.81875228881836,-14.700000762939453,-27.093751907348633,995.489990234375,141.71132258427912,76.53794168141857,106.8688214145666,13.462058318581438,16.430656402382688,-151.51748880859913,21.12297625414207,1.2081603932373746,208.48251119140087,0.3920354750537469
1743964462521,1743964462274,10.764710426330566,1.1647064685821533,-4.050450325012207,1743964462238,-0.6569850444793701,-0.043829549103975296,-1.012966513633728,1743964462155,-37.81875228881836,-14.700000762939453,-27.093751907348633,995.489990234375,163.95741747964905,83.82480594547057,110.61987246813347,6.175194054529427,20.510215844911755,-151.51748880859913,21.38124949971343,1.2081603932373746,208.48251119140087,0.3920354750537469
1743964462547,1743964462274,10.764710426330566,1.1647064685821533,-4.050450325012207,1743964462238,-0.6569850444793701,-0.043829549103975296,-1.012966513633728,1743964462155,-37.81875228881836,-14.700000762939453,-27.093751907348633,995.4912109375,163.95741747964905,83.82480594547057,110.61987246813347,6.175194054529427,20.510215844911755,-151.51748880859913,21.38124949971343,1.2081603932373746,208.48251119140087,0.38169134163605345
1743964462598,1743964462274,10.764710426330566,1.1647064685821533,-4.050450325012207,1743964462343,0.10170898586511612,0.44898560643196106,-0.7402154207229614,1743964462155,-37.81875228881836,-14.700000762939453,-27.093751907348633,995.4912109375,163.95741747964905,83.82480594547057,110.61987246813347,6.175194054529427,20.510215844911755,-151.51748880859913,21.38124949971343,0.8716947066862669,208.48251119140087,0.38169134163605345
